{
  "type": "FeatureCollection",
  "features": [
    {
      "type": "Feature",
      "properties": {
        "name": "Main Gate",
        "character": "MG-001",
        "descriptio": "University main entrance gate"
      },
      "geometry": {
        "type": "Point",
        "coordinates": [37.0093, -0.3603]
      }
    },
    {
      "type": "Feature",
      "properties": {
        "name": "Main Library",
        "character": "LIB-001",
        "descriptio": "Central library facility with 4 floors"
      },
      "geometry": {
        "type": "Point",
        "coordinates": [37.0095, -0.3605]
      }
    },
    {
      "type": "Feature",
      "properties": {
        "name": "Engineering Building",
        "character": "ENG-001",
        "descriptio": "Faculty of engineering and technology"
      },
      "geometry": {
        "type": "Point",
        "coordinates": [37.0098, -0.3608]
      }
    },
    {
      "type": "Feature",
      "properties": {
        "name": "Student Center",
        "character": "STC-001",
        "descriptio": "Student services and administration hub"
      },
      "geometry": {
        "type": "Point",
        "coordinates": [37.009, -0.3610]
      }
    },
    {
      "type": "Feature",
      "properties": {
        "name": "Sports Complex",
        "character": "SPC-001",
        "descriptio": "Athletic facilities and sports ground"
      },
      "geometry": {
        "type": "Point",
        "coordinates": [37.0085, -0.3600]
      }
    },
    {
      "type": "Feature",
      "properties": {
        "name": "Medical Center",
        "character": "MED-001",
        "descriptio": "Campus health center and clinic"
      },
      "geometry": {
        "type": "Point",
        "coordinates": [37.0092, -0.3615]
      }
    },
    {
      "type": "Feature",
      "properties": {
        "name": "IT Department",
        "character": "IT-001",
        "descriptio": "Information technology and computing center"
      },
      "geometry": {
        "type": "Point",
        "coordinates": [37.0088, -0.3607]
      }
    },
    {
      "type": "Feature",
      "properties": {
        "name": "Cafeteria",
        "character": "CAF-001",
        "descriptio": "Main dining and food services facility"
      },
      "geometry": {
        "type": "Point",
        "coordinates": [37.0091, -0.3602]
      }
    },
    {
      "type": "Feature",
      "properties": {
        "name": "Science Building",
        "character": "SCI-001",
        "descriptio": "Faculty of sciences laboratories and classrooms"
      },
      "geometry": {
        "type": "Point",
        "coordinates": [37.0100, -0.3612]
      }
    },
    {
      "type": "Feature",
      "properties": {
        "name": "Lecture Hall A",
        "character": "LEC-001",
        "descriptio": "Large lecture hall for 500+ students"
      },
      "geometry": {
        "type": "Point",
        "coordinates": [37.0089, -0.3604]
      }
    }
  ]
}
